$GPRMC,150015.733,A,4912.3938,N,03151.9578,E,0.05,154.6,090805,,*39
$GPGGA,150014.733,4912.3938,N,03151.9578,E,1,11,01.0,139.4,M,26.8,M,,*62
$PORZD,A,05.8*01
$GPGSA,A,3,26,00,11,29,54,00,07,28,09,55,56,36,00,18,02.1,01.0,01.6*02
$GPRMC,150016.733,A,4912.3938,N,03151.9578,E,0.05,182.3,090805,,*34
$GPGGA,150015.733,4912.3938,N,03151.9578,E,1,11,01.0,139.3,M,26.8,M,,*64
$PORZD,A,05.8*01
$GPGSA,A,3,26,00,11,29,54,00,07,28,09,55,56,36,00,18,02.1,01.0,01.6*02
$GPRMC,150017.733,A,4912.3937,N,03151.9578,E,0.05,171.7,090805,,*32
$GPGGA,150016.733,4912.3937,N,03151.9578,E,1,11,01.0,139.1,M,26.8,M,,*6A
$PORZD,A,05.8*01
$GPGSA,A,3,26,00,11,29,54,00,07,28,09,55,56,36,00,18,02.1,01.0,01.6*02
$GPRMC,150018.733,A,4912.3937,N,03151.9578,E,0.06,160.7,090805,,*3E
$GPGGA,150017.733,4912.3937,N,03151.9577,E,1,11,01.0,138.8,M,26.8,M,,*6C
$PORZD,A,05.8*01
$GPGSA,A,3,26,00,11,29,54,00,07,28,09,55,56,36,00,18,02.1,01.0,01.6*02
$GPRMC,150019.733,A,4912.3937,N,03151.9577,E,0.05,171.1,090805,,*35
$GPGGA,150018.733,4912.3937,N,03151.9577,E,1,11,01.0,138.8,M,26.8,M,,*63
$PORZD,A,05.8*01
$GPGSA,A,3,26,00,11,29,54,00,07,28,09,55,56,36,00,18,02.1,01.0,01.6*02
$GPRMC,150020.733,A,4912.3937,N,03151.9578,E,0.06,170.0,090805,,*33
$GPGGA,150019.733,4912.3937,N,03151.9578,E,1,11,01.0,139.1,M,26.8,M,,*65
$PORZD,A,05.8*01
$GPGSA,A,3,26,00,11,29,54,00,07,28,09,55,56,36,00,18,02.1,01.0,01.6*02
$GPRMC,150021.733,A,4912.3937,N,03151.9577,E,0.04,182.2,090805,,*30
$GPGGA,150020.733,4912.3937,N,03151.9577,E,1,11,01.0,138.9,M,26.8,M,,*69
$PORZD,A,05.8*01
$GPGSA,A,3,26,00,11,29,54,00,07,28,09,55,56,36,00,18,02.1,01.0,01.6*02
$GPRMC,150022.733,A,4912.3937,N,03151.9577,E,0.06,167.2,090805,,*3A
$GPGGA,150021.733,4912.3937,N,03151.9577,E,1,11,01.0,139.0,M,26.8,M,,*60
$PORZD,A,05.8*01
$GPGSA,A,3,26,00,11,29,54,00,07,28,09,55,56,36,00,18,02.1,01.0,01.6*02
$GPRMC,150023.733,A,4912.3937,N,03151.9578,E,0.04,182.1,090805,,*3E
$GPGGA,150022.733,4912.3937,N,03151.9578,E,1,11,01.0,139.2,M,26.8,M,,*6E
$PORZD,A,05.8*01
$GPGSA,A,3,26,00,11,29,54,00,07,28,09,55,56,36,00,18,02.1,01.0,01.6*02
$GPRMC,150024.733,A,4912.3938,N,03151.9578,E,0.05,169.2,090805,,*31
$GPGGA,150023.733,4912.3938,N,03151.9578,E,1,11,01.0,139.5,M,26.8,M,,*67
$PORZD,A,05.8*01
$GPGSA,A,3,26,00,11,29,54,00,07,28,09,55,56,36,00,18,02.1,01.0,01.6*02
$GPRMC,150025.733,A,4912.3937,N,03151.9577,E,0.05,180.1,090805,,*34
$GPGGA,150024.733,4912.3937,N,03151.9577,E,1,11,01.0,139.3,M,26.8,M,,*66
$PORZD,A,05.8*01
$GPGSA,A,3,26,00,11,29,54,00,07,28,09,55,56,36,00,18,02.1,01.0,01.6*02
$GPRMC,150026.733,A,4912.3938,N,03151.9578,E,0.05,165.9,090805,,*34
$GPGGA,150025.733,4912.3938,N,03151.9578,E,1,11,01.0,139.5,M,26.8,M,,*61
$PORZD,A,05.8*01
$GPGSA,A,3,26,00,11,29,54,00,07,28,09,55,56,36,00,18,02.1,01.0,01.6*02
$GPRMC,150027.733,A,4912.3938,N,03151.9578,E,0.03,197.5,090805,,*32
$GPGGA,150026.733,4912.3938,N,03151.9578,E,1,11,01.0,139.6,M,26.8,M,,*61
$PORZD,A,05.8*01
$GPGSA,A,3,26,00,11,29,54,00,07,28,09,55,56,36,00,18,02.1,01.0,01.6*02
$GPRMC,150028.733,A,4912.3938,N,03151.9578,E,0.05,160.3,090805,,*35
$GPGGA,150027.733,4912.3938,N,03151.9578,E,1,11,01.0,139.7,M,26.8,M,,*61
$PORZD,A,05.8*01
$GPGSA,A,3,26,00,11,29,54,00,07,28,09,55,56,36,00,18,02.1,01.0,01.6*02
$GPRMC,150029.733,A,4912.3938,N,03151.9577,E,0.05,175.7,090805,,*3B
$GPGGA,150028.733,4912.3938,N,03151.9577,E,1,11,01.0,139.5,M,26.8,M,,*63
$PORZD,A,05.8*01
$GPGSA,A,3,26,00,11,29,54,00,07,28,09,55,56,36,00,18,02.1,01.0,01.6*02
$GPRMC,150030.733,A,4912.3937,N,03151.9577,E,0.06,163.4,090805,,*3B
$GPGGA,150029.733,4912.3937,N,03151.9577,E,1,11,01.0,139.3,M,26.8,M,,*6B
$PORZD,A,05.8*01
$GPGSA,A,3,26,00,11,29,54,00,07,28,09,55,56,36,00,18,02.1,01.0,01.6*02
$GPRMC,150031.733,A,4912.3937,N,03151.9577,E,0.05,165.9,090805,,*32
$GPGGA,150030.733,4912.3937,N,03151.9577,E,1,11,01.0,139.3,M,26.8,M,,*63
$PORZD,A,05.8*01
$GPGSA,A,3,26,00,11,29,54,00,07,28,09,55,56,36,00,18,02.1,01.0,01.6*02
$GPRMC,150032.733,A,4912.3937,N,03151.9577,E,0.04,168.0,090805,,*34
$GPGGA,150031.733,4912.3937,N,03151.9577,E,1,11,01.0,139.1,M,26.8,M,,*60
$PORZD,A,05.8*01
$GPGSA,A,3,26,00,11,29,54,00,07,28,09,55,56,36,00,18,02.1,01.0,01.6*02
$GPRMC,150033.733,A,4912.3936,N,03151.9580,E,0.05,185.9,090805,,*37
$GPGGA,150032.733,4912.3936,N,03151.9580,E,1,11,01.0,137.4,M,26.8,M,,*61
$PORZD,A,07.9*02
$GPGSA,A,3,26,00,11,29,54,00,07,28,09,55,56,36,00,18,02.1,01.0,01.6*02
$GPRMC,150034.733,A,4912.3935,N,03151.9585,E,0.05,171.5,090805,,*31
$GPGGA,150033.733,4912.3935,N,03151.9585,E,1,11,01.0,135.5,M,26.8,M,,*65
$PORZD,A,07.2*09
$GPGSA,A,3,26,00,11,29,54,00,07,28,09,55,56,36,00,18,02.1,01.0,01.6*02
$GPRMC,150035.733,A,4912.3934,N,03151.9590,E,0.03,197.1,090805,,*3F
$GPGGA,150034.733,4912.3934,N,03151.9590,E,1,11,01.0,133.3,M,26.8,M,,*67
$PORZD,A,06.1*0B
$GPGSA,A,3,26,00,11,29,54,00,07,28,09,55,56,36,00,18,02.1,01.0,01.6*02
$GPRMC,150036.733,A,4912.3933,N,03151.9594,E,0.03,197.1,090805,,*3F
$GPGGA,150035.733,4912.3933,N,03151.9594,E,0,11,01.0,131.3,M,26.8,M,,*66
$PORZD,A,06.1*0B
$GPGSA,A,3,26,00,11,29,54,00,07,28,09,55,56,36,00,18,02.1,01.0,01.6*02
$GPRMC,150037.733,A,4912.3933,N,03151.9594,E,0.05,172.2,090805,,*30
$GPGGA,150035.733,4912.3933,N,03151.9594,E,1,11,01.0,131.3,M,26.8,M,,*67
$PORZD,A,06.2*08
$GPGSA,A,3,26,00,11,29,54,00,07,28,09,55,56,36,00,18,02.1,01.0,01.6*02
$GPRMC,150038.733,A,4912.3932,N,03151.9597,E,0.04,175.4,090805,,*3D
$GPGGA,150037.733,4912.3932,N,03151.9597,E,1,11,01.0,129.7,M,26.8,M,,*6A
$PORZD,A,06.1*0B
$GPGSA,A,3,26,00,11,29,54,00,07,28,09,55,56,36,00,18,02.1,01.0,01.6*02
$GPRMC,150039.733,A,4912.3931,N,03151.9599,E,0.05,177.2,090805,,*34
$GPGGA,150038.733,4912.3931,N,03151.9599,E,1,11,01.0,128.5,M,26.8,M,,*6B
$PORZD,A,06.1*0B
$GPGSA,A,3,26,00,11,29,54,00,07,28,09,55,56,36,00,18,02.1,01.0,01.6*02
$GPRMC,150040.733,A,4912.3931,N,03151.9601,E,0.05,186.6,090805,,*32
$GPGGA,150039.733,4912.3931,N,03151.9601,E,1,11,01.0,127.6,M,26.8,M,,*64
$PORZD,A,06.1*0B
$GPGSA,A,3,26,00,11,29,54,00,07,28,09,55,56,00,00,18,02.1,01.0,01.6*07
$GPRMC,150041.733,A,4912.3931,N,03151.9601,E,0.05,186.6,090805,,*33
$GPGGA,150039.733,4912.3931,N,03151.9601,E,0,11,01.0,127.6,M,26.8,M,,*65
$PORZD,A,06.2*08
$GPGSA,A,3,26,00,11,29,54,00,07,28,09,55,56,36,00,18,02.1,01.0,01.6*02
$GPRMC,150042.733,A,4912.3931,N,03151.9601,E,0.05,186.6,090805,,*30
$GPGGA,150039.733,4912.3931,N,03151.9601,E,0,11,01.0,127.6,M,26.8,M,,*65
$PORZD,A,06.3*09
$GPGSA,A,3,26,00,11,29,54,00,07,28,09,55,56,36,00,18,02.1,01.0,01.6*02
$GPRMC,150043.733,A,4912.3930,N,03151.9601,E,0.05,186.6,090805,,*30
$GPGGA,150039.733,4912.3931,N,03151.9601,E,0,11,01.0,127.6,M,26.8,M,,*65
$PORZD,A,06.5*0F
$GPGSA,A,3,26,00,11,29,54,00,07,28,09,55,56,36,00,18,02.1,01.0,01.6*02
$GPRMC,150044.733,A,4912.3932,N,03151.9602,E,0.03,178.1,090805,,*36
$GPGGA,150040.733,4912.3932,N,03151.9602,E,1,10,01.0,128.0,M,26.8,M,,*62
$PORZD,A,06.5*0F
$GPGSA,A,3,26,00,11,29,54,00,07,28,09,55,56,00,00,18,02.1,01.0,01.6*07
$GPRMC,150045.733,A,4912.3933,N,03151.9603,E,0.04,174.6,090805,,*3B
$GPGGA,150044.733,4912.3933,N,03151.9603,E,1,10,01.0,128.2,M,26.8,M,,*64
$PORZD,A,06.1*0B
$GPGSA,A,3,26,00,11,29,54,00,07,28,09,55,56,36,00,18,02.1,01.0,01.6*02
$GPRMC,150046.733,A,4912.3933,N,03151.9604,E,0.03,179.3,090805,,*30
$GPGGA,150045.733,4912.3934,N,03151.9604,E,1,11,01.0,127.9,M,26.8,M,,*60
$PORZD,A,06.1*0B
$GPGSA,A,3,26,00,11,29,54,00,07,28,09,55,56,36,00,18,02.1,01.0,01.6*02
$GPRMC,150047.733,A,4912.3933,N,03151.9604,E,0.05,190.0,090805,,*33
$GPGGA,150046.733,4912.3933,N,03151.9604,E,1,11,01.0,127.3,M,26.8,M,,*6E
$PORZD,A,06.1*0B
$GPGSA,A,3,26,00,11,29,54,00,07,28,09,55,56,36,00,18,02.1,01.0,01.6*02
$GPRMC,150048.733,A,4912.3933,N,03151.9604,E,0.05,183.5,090805,,*3B
$GPGGA,150047.733,4912.3934,N,03151.9604,E,1,11,01.0,127.5,M,26.8,M,,*6E
$PORZD,A,06.1*0B
$GPGSA,A,3,26,00,11,29,54,00,07,28,09,55,56,36,00,18,02.1,01.0,01.6*02
$GPRMC,150049.733,A,4912.3933,N,03151.9605,E,0.05,180.2,090805,,*3F
$GPGGA,150048.733,4912.3933,N,03151.9605,E,1,11,01.0,127.3,M,26.8,M,,*61
$PORZD,A,06.1*0B
$GPGSA,A,3,26,00,11,29,54,00,07,28,09,55,56,36,00,18,02.1,01.0,01.6*02
$GPRMC,150050.733,A,4912.3933,N,03151.9605,E,0.03,182.9,090805,,*38
$GPGGA,150049.733,4912.3933,N,03151.9605,E,1,11,01.0,127.3,M,26.8,M,,*60
$PORZD,A,06.1*0B
$GPGSA,A,3,26,00,11,29,54,00,07,28,09,55,56,36,00,18,02.1,01.0,01.6*02
$GPRMC,150051.733,A,4912.3933,N,03151.9605,E,0.05,182.9,090805,,*3F
$GPGGA,150050.733,4912.3933,N,03151.9605,E,1,11,01.0,127.1,M,26.8,M,,*6A
$PORZD,A,06.1*0B
$GPGSA,A,3,26,00,11,29,54,00,07,28,09,55,56,36,00,18,02.1,01.0,01.6*02
$GPRMC,150052.733,A,4912.3934,N,03151.9605,E,0.02,188.5,090805,,*3A
$GPGGA,150051.733,4912.3934,N,03151.9605,E,1,11,01.0,127.5,M,26.8,M,,*68
$PORZD,A,06.1*0B
$GPGSA,A,3,26,00,11,29,54,00,07,28,09,55,56,36,00,18,02.1,01.0,01.6*02
$GPRMC,150053.733,A,4912.3934,N,03151.9605,E,0.04,189.5,090805,,*3C
$GPGGA,150052.733,4912.3934,N,03151.9606,E,1,11,01.0,127.4,M,26.8,M,,*69
$PORZD,A,06.1*0B
$GPGSA,A,3,26,00,11,29,54,00,07,28,09,55,56,00,00,18,02.1,01.0,01.6*07
$GPRMC,150054.733,A,4912.3934,N,03151.9606,E,0.05,161.7,090805,,*3D
$GPGGA,150053.733,4912.3934,N,03151.9606,E,1,10,01.0,127.7,M,26.8,M,,*6A
$PORZD,A,06.1*0B
$GPGSA,A,3,26,00,11,29,54,00,07,28,09,55,56,00,00,18,02.1,01.0,01.6*07
$GPRMC,150055.733,A,4912.3935,N,03151.9606,E,0.04,190.3,090805,,*36
$GPGGA,150054.733,4912.3935,N,03151.9606,E,1,10,01.0,128.0,M,26.8,M,,*64
$PORZD,A,06.1*0B
$GPGSA,A,3,26,00,11,29,54,00,07,28,09,55,56,36,00,18,02.1,01.0,01.6*02
$GPRMC,150056.733,A,4912.3935,N,03151.9606,E,0.05,182.5,090805,,*31
$GPGGA,150055.733,4912.3935,N,03151.9606,E,1,11,01.0,127.9,M,26.8,M,,*62
$PORZD,A,06.1*0B
$GPGSA,A,3,26,00,11,29,54,00,07,28,09,55,56,36,00,18,02.1,01.0,01.6*02
$GPRMC,150057.733,A,4912.3935,N,03151.9606,E,0.04,182.1,090805,,*35
$GPGGA,150056.733,4912.3935,N,03151.9606,E,1,11,01.0,128.0,M,26.8,M,,*67
$PORZD,A,06.1*0B
$GPGSA,A,3,26,00,11,29,54,00,07,28,09,55,56,36,00,18,02.1,01.0,01.6*02
$GPRMC,150058.733,A,4912.3935,N,03151.9607,E,0.07,172.8,090805,,*3E
$GPGGA,150057.733,4912.3935,N,03151.9606,E,1,11,01.0,128.0,M,26.8,M,,*66
$PORZD,A,06.1*0B
$GPGSA,A,3,26,00,11,29,54,00,07,28,09,55,56,36,00,18,02.1,01.0,01.6*02
$GPRMC,150059.733,A,4912.3935,N,03151.9607,E,0.03,201.8,090805,,*3C
$GPGGA,150058.733,4912.3935,N,03151.9607,E,1,11,01.0,128.1,M,26.8,M,,*69
$PORZD,A,06.1*0B
$GPGSA,A,3,26,00,11,29,54,00,07,28,09,55,56,36,00,18,02.1,01.0,01.6*02
$GPRMC,150100.733,A,4912.3935,N,03151.9607,E,0.04,187.1,090805,,*32
$GPGGA,150059.733,4912.3935,N,03151.9607,E,1,11,01.0,127.9,M,26.8,M,,*6F
$GPGSV,4,1,14,05,08,251,00,07,58,118,15,08,11,111,00,09,38,298,15*78
$GPGSV,4,2,14,11,09,040,15,26,53,213,15,28,38,063,15,29,44,199,15*7B
$GPGSV,4,3,14,31,50,077,00,36,10,273,06,37,18,320,00,54,24,032,15*76
$GPGSV,4,4,14,55,67,087,15,56,36,182,15*7F
$PORZD,A,06.1*0B
$GPGSA,A,3,26,00,11,29,54,00,07,28,09,55,56,36,00,18,02.1,01.0,01.6*02
$GPRMC,150101.733,A,4912.3935,N,03151.9607,E,0.05,182.5,090805,,*33
$GPGGA,150100.733,4912.3935,N,03151.9607,E,1,11,01.0,127.9,M,26.8,M,,*62
$PORZD,A,06.1*0B
$GPGSA,A,3,26,00,11,29,54,00,07,28,09,55,56,36,00,18,02.1,01.0,01.6*02
$GPRMC,150102.733,A,4912.3935,N,03151.9607,E,0.04,197.4,090805,,*34
$GPGGA,150101.733,4912.3935,N,03151.9607,E,1,11,01.0,128.1,M,26.8,M,,*64
$PORZD,A,06.1*0B
$GPGSA,A,3,26,00,11,29,54,00,07,28,09,55,56,36,00,18,02.1,01.0,01.6*02
$GPRMC,150103.733,A,4912.3935,N,03151.9607,E,0.04,169.2,090805,,*32
$GPGGA,150102.733,4912.3935,N,03151.9607,E,1,11,01.0,127.8,M,26.8,M,,*61
$PORZD,A,06.1*0B
$GPGSA,A,3,26,00,11,29,54,00,07,28,09,55,56,36,00,18,02.1,01.0,01.6*02
$GPRMC,150104.733,A,4912.3935,N,03151.9607,E,0.04,172.7,090805,,*3A
$GPGGA,150103.733,4912.3935,N,03151.9607,E,1,11,01.0,128.0,M,26.8,M,,*67
$PORZD,A,06.1*0B
$GPGSA,A,3,26,00,11,29,54,00,07,28,09,55,56,36,00,18,02.1,01.0,01.6*02
$GPRMC,150105.733,A,4912.3935,N,03151.9607,E,0.04,186.5,090805,,*32
$GPGGA,150104.733,4912.3935,N,03151.9607,E,1,11,01.0,127.8,M,26.8,M,,*67
$PORZD,A,06.1*0B
$GPGSA,A,3,26,00,11,29,54,00,07,28,09,55,56,36,00,18,02.1,01.0,01.6*02
$GPRMC,150106.733,A,4912.3932,N,03151.9610,E,0.03,224.2,090805,,*3B
$GPGGA,150105.733,4912.3932,N,03151.9611,E,1,12,01.0,126.2,M,26.8,M,,*6E
$PORZD,A,05.3*0A
$GPGSA,A,3,26,00,11,29,54,08,07,28,09,55,56,36,00,18,02.1,01.0,01.6*0A
$GPRMC,150107.733,A,4912.3931,N,03151.9610,E,0.03,235.5,090805,,*3E
$GPGGA,150106.733,4912.3931,N,03151.9611,E,1,12,01.0,125.6,M,26.8,M,,*69
$PORZD,A,04.7*0F
$GPGSA,A,3,26,00,11,29,54,08,07,28,09,55,56,36,00,18,02.1,01.0,01.6*0A
$GPRMC,150108.733,A,4912.3931,N,03151.9611,E,0.02,256.9,090805,,*38
$GPGGA,150107.733,4912.3931,N,03151.9611,E,1,12,01.0,125.4,M,26.8,M,,*6A
$PORZD,A,04.8*00
$GPGSA,A,3,26,00,11,29,54,08,07,28,09,55,56,36,00,18,02.1,01.0,01.6*0A
$GPRMC,150109.733,A,4912.3930,N,03151.9611,E,0.02,253.3,090805,,*37
$GPGGA,150108.733,4912.3930,N,03151.9611,E,1,12,01.0,125.2,M,26.8,M,,*62
$PORZD,A,04.7*0F
$GPGSA,A,3,26,00,11,29,54,08,07,28,09,55,56,36,00,18,02.1,01.0,01.6*0A
$GPRMC,150110.733,A,4912.3930,N,03151.9611,E,0.03,237.7,090805,,*38
$GPGGA,150109.733,4912.3930,N,03151.9611,E,1,12,01.0,125.0,M,26.8,M,,*61
$PORZD,A,04.7*0F
$GPGSA,A,3,26,00,11,29,54,08,07,28,09,55,56,36,00,18,02.1,01.0,01.6*0A
$GPRMC,150111.733,A,4912.3930,N,03151.9610,E,0.03,241.5,090805,,*3B
$GPGGA,150110.733,4912.3930,N,03151.9610,E,1,12,01.0,124.8,M,26.8,M,,*61
$PORZD,A,04.7*0F
$GPGSA,A,3,26,00,11,29,54,08,07,28,09,55,56,36,00,18,02.1,01.0,01.6*0A
$GPRMC,150112.733,A,4912.3930,N,03151.9610,E,0.02,227.5,090805,,*39
$GPGGA,150111.733,4912.3930,N,03151.9611,E,1,12,00.8,124.8,M,26.8,M,,*68
$PORZD,A,04.7*0F
$GPGSA,A,3,26,00,11,29,54,08,07,28,09,55,56,36,00,18,01.6,00.8,01.2*03
$GPRMC,150113.733,A,4912.3930,N,03151.9611,E,0.02,253.8,090805,,*37
$GPGGA,150112.733,4912.3930,N,03151.9611,E,1,12,00.8,125.0,M,26.8,M,,*62
$PORZD,A,04.8*00
$GPGSA,A,3,26,00,11,29,54,08,07,28,09,55,56,36,00,18,01.6,00.8,01.2*03
$GPRMC,150114.733,A,4912.3930,N,03151.9611,E,0.03,223.0,090805,,*3E
$GPGGA,150113.733,4912.3930,N,03151.9611,E,1,12,00.8,125.0,M,26.8,M,,*63
$PORZD,A,04.7*0F
$GPGSA,A,3,26,00,11,29,54,08,07,28,09,55,56,36,00,18,01.6,00.8,01.2*03
$GPRMC,150115.733,A,4912.3930,N,03151.9611,E,0.01,231.5,090805,,*3B
$GPGGA,150114.733,4912.3930,N,03151.9611,E,1,12,00.8,125.1,M,26.8,M,,*65
$PORZD,A,04.7*0F
$GPGSA,A,3,26,00,11,29,54,08,07,28,09,55,56,36,00,18,01.6,00.8,01.2*03
$GPRMC,150116.733,A,4912.3930,N,03151.9611,E,0.02,217.6,090805,,*3C
$GPGGA,150115.733,4912.3930,N,03151.9611,E,1,12,00.8,125.0,M,26.8,M,,*65
$PORZD,A,04.7*0F
$GPGSA,A,3,26,00,11,29,54,08,07,28,09,55,56,00,00,18,01.6,00.8,01.2*06
$GPRMC,150117.733,A,4912.3930,N,03151.9611,E,0.04,217.4,090805,,*39
$GPGGA,150116.733,4912.3931,N,03151.9611,E,1,11,00.8,125.2,M,26.8,M,,*66
$PORZD,A,04.8*00
$GPGSA,A,3,26,00,11,29,54,08,07,28,09,55,56,36,00,18,01.6,00.8,01.2*03
$GPRMC,150118.733,A,4912.3931,N,03151.9612,E,0.01,244.8,090805,,*3B
$GPGGA,150117.733,4912.3931,N,03151.9612,E,1,12,00.8,125.3,M,26.8,M,,*66
$PORZD,A,04.8*00
$GPGSA,A,3,26,00,11,29,54,08,07,28,09,55,56,00,00,18,01.6,00.8,01.2*06
$GPRMC,150119.733,A,4912.3931,N,03151.9612,E,0.03,219.7,090805,,*3F
$GPGGA,150118.733,4912.3931,N,03151.9612,E,1,11,00.8,125.5,M,26.8,M,,*6C
$PORZD,A,04.8*00
$GPGSA,A,3,26,00,11,29,54,08,07,28,09,55,56,36,00,18,01.6,00.8,01.2*03
$GPRMC,150120.733,A,4912.3931,N,03151.9611,E,0.02,237.6,090805,,*3A
$GPGGA,150119.733,4912.3931,N,03151.9612,E,1,12,00.8,125.3,M,26.8,M,,*68
$PORZD,A,04.7*0F
$GPGSA,A,3,26,00,11,29,54,08,07,28,09,55,56,36,00,18,01.6,00.8,01.2*03
$GPRMC,150121.733,A,4912.3931,N,03151.9611,E,0.03,224.8,090805,,*36
$GPGGA,150120.733,4912.3931,N,03151.9611,E,1,12,00.8,125.2,M,26.8,M,,*60
$PORZD,A,04.7*0F
$GPGSA,A,3,26,00,11,29,54,08,07,28,09,55,56,36,00,18,01.6,00.8,01.2*03
$GPRMC,150122.733,A,4912.3931,N,03151.9610,E,0.02,220.6,090805,,*3F
$GPGGA,150121.733,4912.3931,N,03151.9611,E,1,12,00.8,125.0,M,26.8,M,,*63
$PORZD,A,04.7*0F
$GPGSA,A,3,26,00,11,29,54,08,07,28,09,55,56,36,00,18,01.6,00.8,01.2*03
$GPRMC,150123.733,A,4912.3931,N,03151.9610,E,0.03,206.5,090805,,*38
$GPGGA,150122.733,4912.3931,N,03151.9610,E,1,12,00.8,124.9,M,26.8,M,,*69
$PORZD,A,04.7*0F
$GPGSA,A,3,26,00,11,29,54,08,07,28,09,55,56,36,00,18,01.6,00.8,01.2*03
$GPRMC,150124.733,A,4912.3931,N,03151.9610,E,0.02,230.9,090805,,*37
$GPGGA,150123.733,4912.3931,N,03151.9610,E,1,12,00.8,125.0,M,26.8,M,,*60
$PORZD,A,04.7*0F
$GPGSA,A,3,26,00,11,29,54,08,07,28,09,55,56,36,00,18,01.6,00.8,01.2*03
$GPRMC,150125.733,A,4912.3931,N,03151.9610,E,0.02,258.7,090805,,*36
$GPGGA,150124.733,4912.3931,N,03151.9610,E,1,12,00.8,124.9,M,26.8,M,,*6F
$PORZD,A,04.7*0F
$GPGSA,A,3,26,00,11,29,54,08,07,28,09,55,56,36,00,18,01.6,00.8,01.2*03
$GPRMC,150126.733,A,4912.3931,N,03151.9609,E,0.03,213.4,090805,,*30
$GPGGA,150125.733,4912.3931,N,03151.9609,E,1,12,00.8,124.7,M,26.8,M,,*68
$PORZD,A,04.7*0F
$GPGSA,A,3,26,00,11,29,54,08,07,28,09,55,56,36,00,18,01.6,00.8,01.2*03
$GPRMC,150127.733,A,4912.3931,N,03151.9610,E,0.03,228.5,090805,,*30
$GPGGA,150126.733,4912.3931,N,03151.9610,E,1,12,00.8,124.9,M,26.8,M,,*6D
$PORZD,A,04.7*0F
$GPGSA,A,3,26,00,11,29,54,08,07,28,09,55,56,36,00,18,01.6,00.8,01.2*03
$GPRMC,150128.733,A,4912.3931,N,03151.9609,E,0.04,229.1,090805,,*35
$GPGGA,150127.733,4912.3931,N,03151.9610,E,1,12,00.8,124.8,M,26.8,M,,*6D
$PORZD,A,04.7*0F
$GPGSA,A,3,26,00,11,29,54,08,07,28,09,55,56,36,00,18,01.6,00.8,01.2*03
$GPRMC,150129.733,A,4912.3931,N,03151.9609,E,0.02,184.0,090805,,*37
$GPGGA,150128.733,4912.3931,N,03151.9609,E,1,12,00.8,124.8,M,26.8,M,,*6A
$PORZD,A,04.7*0F
$GPGSA,A,3,26,00,11,29,54,08,07,28,09,55,56,36,00,18,01.6,00.8,01.2*03
$GPRMC,150130.733,A,4912.3931,N,03151.9609,E,0.03,265.0,090805,,*32
$GPGGA,150129.733,4912.3931,N,03151.9609,E,1,12,00.8,124.8,M,26.8,M,,*6B
$PORZD,A,04.7*0F
$GPGSA,A,3,26,00,11,29,54,08,07,28,09,55,56,36,00,18,01.6,00.8,01.2*03
$GPRMC,150131.733,A,4912.3931,N,03151.9609,E,0.03,231.1,090805,,*33
$GPGGA,150130.733,4912.3931,N,03151.9610,E,1,12,00.8,125.0,M,26.8,M,,*62
$PORZD,A,04.8*00
$GPGSA,A,3,26,00,11,29,54,08,07,28,09,55,56,36,00,18,01.6,00.8,01.2*03
$GPRMC,150132.733,A,4912.3931,N,03151.9609,E,0.02,236.8,090805,,*3F
$GPGGA,150131.733,4912.3931,N,03151.9609,E,1,12,00.8,124.9,M,26.8,M,,*63
$PORZD,A,04.7*0F
$GPGSA,A,3,26,00,11,29,54,08,07,28,09,55,56,36,00,18,01.6,00.8,01.2*03
$GPRMC,150133.733,A,4912.3931,N,03151.9609,E,0.02,239.0,090805,,*39
$GPGGA,150132.733,4912.3931,N,03151.9609,E,1,12,00.8,125.0,M,26.8,M,,*68
$PORZD,A,04.7*0F
$GPGSA,A,3,26,00,11,29,54,08,07,28,09,55,56,36,00,18,01.6,00.8,01.2*03
$GPRMC,150015.733,A,4912.3938,N,03151.9578,E,0.05,154.6,090805,,*39
$GPGGA,150014.733,4912.3938,N,03151.9578,E,1,11,01.0,139.4,M,26.8,M,,*62
$PORZD,A,05.8*01
$GPGSA,666.666,3,26,00,11,29,54,00,07,28,09,55,56,36,00,18,02.1,01.0,01.6*02
